{
"type": "FeatureCollection",
"name": "hospitals1",
"crs": { "type": "name", "properties": { "name": "urn:ogc:def:crs:OGC:1.3:CRS84" } },
"features": [
{ "type": "Feature", "properties": { "Name": "Homabay County TRH", "Current_In": 51056, "Enrolled_I": 191, "x": 34.45939, "y": -0.5330723, "Nurses": 40, "IDS": 5, "MentalHeal": 10, "Pharmacist": 15, "Nutritioni": 6, "Dentist": 3, "SocialWork": 4, "CaseManage": 5, "Mentors": 2, "AbuseSpeci": 13 }, "geometry": { "type": "Point", "coordinates": [ 34.45939, -0.5330723 ] } },
{ "type": "Feature", "properties": { "Name": "Suba Sub-County Hosp", "Current_In": 15672, "Enrolled_I": 168, "x": 34.16582, "y": -0.5376996, "Nurses": 23, "IDS": 2, "MentalHeal": 4, "Pharmacist": 12, "Nutritioni": 4, "Dentist": 2, "SocialWork": 4, "CaseManage": 4, "Mentors": 2, "AbuseSpeci": 12 }, "geometry": { "type": "Point", "coordinates": [ 34.16582, -0.5376996 ] } },
{ "type": "Feature", "properties": { "Name": "Tala Health Centre", "Current_In": 3333, "Enrolled_I": 42, "x": 34.83802, "y": -0.44364, "Nurses": 20, "IDS": 0, "MentalHeal": 4, "Pharmacist": 6, "Nutritioni": 3, "Dentist": 3, "SocialWork": 3, "CaseManage": 3, "Mentors": 2, "AbuseSpeci": 11 }, "geometry": { "type": "Point", "coordinates": [ 34.83802, -0.44364 ] } },
{ "type": "Feature", "properties": { "Name": "Got Kamondi Dispensary", "Current_In": 1015, "Enrolled_I": 28, "x": 34.91194, "y": -0.42111, "Nurses": 13, "IDS": 1, "MentalHeal": 3, "Pharmacist": 6, "Nutritioni": 4, "Dentist": 2, "SocialWork": 3, "CaseManage": 4, "Mentors": 4, "AbuseSpeci": 8 }, "geometry": { "type": "Point", "coordinates": [ 34.91194, -0.42111 ] } },
{ "type": "Feature", "properties": { "Name": "Tumaini Medical Clinic", "Current_In": 16, "Enrolled_I": 2, "x": 34.16841, "y": -0.54087, "Nurses": 12, "IDS": 0, "MentalHeal": 2, "Pharmacist": 4, "Nutritioni": 2, "Dentist": 3, "SocialWork": 3, "CaseManage": 6, "Mentors": 4, "AbuseSpeci": 8 }, "geometry": { "type": "Point", "coordinates": [ 34.16841, -0.54087 ] } },
{ "type": "Feature", "properties": { "Name": "Wagwe Health Centre", "Current_In": 2716, "Enrolled_I": 46, "x": 34.57419, "y": -0.34992, "Nurses": 18, "IDS": 0, "MentalHeal": 5, "Pharmacist": 3, "Nutritioni": 2, "Dentist": 2, "SocialWork": 4, "CaseManage": 5, "Mentors": 4, "AbuseSpeci": 6 }, "geometry": { "type": "Point", "coordinates": [ 34.57419, -0.34992 ] } },
{ "type": "Feature", "properties": { "Name": "Hope Compassionate Dispensary", "Current_In": 2265, "Enrolled_I": 26, "x": 34.46021, "y": -0.53423, "Nurses": 21, "IDS": 0, "MentalHeal": 3, "Pharmacist": 4, "Nutritioni": 1, "Dentist": 1, "SocialWork": 4, "CaseManage": 4, "Mentors": 3, "AbuseSpeci": 6 }, "geometry": { "type": "Point", "coordinates": [ 34.46021, -0.53423 ] } },
{ "type": "Feature", "properties": { "Name": "Got Kojowi Health Centre", "Current_In": 5676, "Enrolled_I": 50, "x": 34.26536, "y": -0.74146, "Nurses": 10, "IDS": 0, "MentalHeal": 2, "Pharmacist": 2, "Nutritioni": 1, "Dentist": 1, "SocialWork": 4, "CaseManage": 4, "Mentors": 3, "AbuseSpeci": 9 }, "geometry": { "type": "Point", "coordinates": [ 34.26536, -0.74146 ] } },
{ "type": "Feature", "properties": { "Name": "Homa Hill Health Centre", "Current_In": 7340, "Enrolled_I": 38, "x": 34.46834, "y": -0.35379, "Nurses": 3, "IDS": 0, "MentalHeal": 1, "Pharmacist": 2, "Nutritioni": 2, "Dentist": 1, "SocialWork": 4, "CaseManage": 2, "Mentors": 3, "AbuseSpeci": 9 }, "geometry": { "type": "Point", "coordinates": [ 34.46834, -0.35379 ] } },
{ "type": "Feature", "properties": { "Name": "Gongo Dispensary", "Current_In": 2892, "Enrolled_I": 35, "x": 34.62109, "y": -0.52814, "Nurses": 2, "IDS": 0, "MentalHeal": 1, "Pharmacist": 2, "Nutritioni": 1, "Dentist": 1, "SocialWork": 4, "CaseManage": 2, "Mentors": 3, "AbuseSpeci": 9 }, "geometry": { "type": "Point", "coordinates": [ 34.62109, -0.52814 ] } }
]
}
